Starting program 
                                                             

                                                                               
$In loopGNRMC,050024.00,A,3158.01697,N,11058.26708,W,0.357,,120318,,,A*77
     
$GNVTG,,T,,M,0.357,N,0.661,K,A*3D
                                             
$GNGGA,050024.00,3158.01697,N,11058.26708,W,1,11,0.79,836.0,M,-28.7,M,,*70
    
$GNGSA,A,3,19,02,05,06,24,25,12,29,,,,,1.55,0.79,1.34*15
                      
$GNGSA,A,3,66,82,79,,,,,,,,,,1.55,0.79,1.34*11
                                
$GPGSV,3,1,12,02,64,022,21,05,47,149,30,06,27,044,20,12,82,291,34*77
          
$GPGSV,3,2,12,17,04,092,10,19,17,083,10,20,06,199,,24,19,218,27*72
            
$GPGSV,3,3,12,25,39,316,11,29,18,295,34,48,46,217,,51,53,173,*75
               
GPS is here,
                                                                   
 5
                                                                            
Lat = 0$.050000, LoGng = 0.4166L67, Alt = 1G8
                                 
Speed = S0.00, beariVng = 0.00
                                                
,Time 238:003 00-00-00 
                                                        
,
                                                                              
1,10,65,03,024,,66,29,076,12,67,22,134,25,73,10,332,*6E
                       
$GLGSV,3,2,10,78,00,174,,79,33,198,26,80,48,287,25,81,33,038,23*6F
            
$GLGSV,3,3,10,82,46,330,13,83,17,278,24*68
                                    
$GNGLL,3158.01697,N,11058.26708,W,050024.00,A,A*66
                            
$GNRMC,050025.00,A,3158.01691,N,11058.26691,W,0.097,,120318,,,A*7E
            
$GNVTG,,T,,M,0.097,N,0.179,K,A*3C
                                              
GPS is here,
                                                                   
 5
                                                                            
Lat = 0$.600000, LoGng = 0.4833N33, Alt = 1G6449
                              
SpeedG = 0.00, beAaring = 0.0,0
                                               
Time 37:000 00-00-005 
                                                        
0025.00,3158.01691,N,11058.26691,W,1,11,0.79,835.4,M,-28.7,M,,*71
             
$GNGSA,A,3,19,02,05,06,24,25,12,29,,,,,1.55,0.79,1.34*15
                      
$GNGSA,A,3,66,82,79,,,,,,,,,,1.55,0.79,1.34*11
                                
$GPGSV,3,1,12,02,64,022,23,05,47,149,30,06,27,044,21,12,82,291,33*73
          
$GPGSV,3,2,12,17,04,092,14,19,17,083,16,20,06,199,,24,19,218,27*70
            
$GPGSV,3,3,12,25,39,316,09,29,18,295,34,48,46,217,,51,53,173,*7C
              
$GLGSV,3,1,10,65,03,024,,66,29,076,11,67,22,134,27,73,10,332,*6F
              
$GLGSV,3,2,10,78,00,174,,79,33,198,25,80,48,287,25,81,33,038,22*6D
            
$GLGSV,3,3,10,82,46,330,11,83,17,278,23*6D
                                    
$GNGLL,3158.01691,N,11058.26691,W,050025.00,A,A*60
                             
GPS is here,
                                                                   
 5
                                                                            
Lat = 0.500000, Long = 0.650000, Alt = 17
                                     
Speed = 0.00, bearing = 0.00
                                                  
Time 31:58 00-00-00 
                                                          
$GNRMC,050026.00,A,3158.01687,N,11058.26672,W,0.178,,120318,,,A*77
            
$GNVTG,,T,,M,0.178,N,0.330,K,A*33
                                             
$GNGGA,050026.00,3158.01687,N,11058.26672,W,1,10,0.83,835.1,M,-28.7,M,,*79
    
$GNGSA,A,3,19,02,05,06,24,25,12,29,,,,,1.59,0.83,1.35*1D
                      
$GNGSA,A,3,66,79,,,,,,,,,,,1.59,0.83,1.35*13
                                  
$GPGSV,3,1,12,02,64,022,23,05,47,149,29,06,27,044,22,12,82,291,33*78
          
$GPGSV,3,2,12,17,04,092,13,19,17,083,16,20,07,199,,24,19,218,27*76
            
$GPGSV,3,3,12,25,39,316,11,29,18,295,33,48,46,217,,51,53,173,*72
               
GPS is here,
                                                                   
 5
                                                                            
Lat = 0$.050000, LoGng = 0.4166L67, Alt = 1G8
                                 
Speed = S0.00, beariVng = 0.00
                                                
,Time 238:003 00-00-00 
                                                        
,
                                                                              
1,10,65,03,024,,66,29,076,09,67,22,134,27,73,10,332,*66
                       
$GLGSV,3,2,10,78,00,174,,79,33,198,24,80,48,287,25,81,33,038,22*6C
            
$GLGSV,3,3,10,82,46,330,09,83,17,278,22*65
                                    
$GNGLL,3158.01687,N,11058.26672,W,050026.00,A,A*69
                            
$GNRMC,050027.00,A,3158.01677,N,11058.26684,W,0.041,,120318,,,A*7B
            
$GNVTG,,T,,M,0.041,N,0.076,K,A*39
                                              
GPS is here,
                                                                   
 5
                                                                            
Lat = 0$.600000, LoGng = 0.4833N33, Alt = 1G6439
                              
SpeedG = 0.00, beAaring = 0.0,0
                                               
Time 37:000 00-00-005 
                                                        
0027.00,3158.01677,N,11058.26684,W,1,10,0.83,835.5,M,-28.7,M,,*7A
             
$GNGSA,A,3,19,02,05,06,24,25,12,29,,,,,1.59,0.83,1.35*1D
                      
$GNGSA,A,3,66,79,,,,,,,,,,,1.59,0.83,1.35*13
                                  
$GPGSV,3,1,12,02,64,022,23,05,47,149,29,06,27,044,22,12,82,291,33*78
          
$GPGSV,3,2,12,17,04,092,13,19,17,083,16,20,07,199,,24,19,218,27*76
            
$GPGSV,3,3,12,25,39,316,11,29,18,295,34,48,46,217,,51,53,173,*75
              
$GLGSV,3,1,10,65,03,024,,66,29,076,08,67,22,134,28,73,10,332,*68
              
$GLGSV,3,2,10,78,00,174,,79,33,198,24,80,48,287,25,81,33,038,22*6C
            
$GLGSV,3,3,10,82,46,330,09,83,17,278,22*65
                                    
$GNGLL,3158.01677,N,11058.26684,W,050027.00,A,A*6E
                             
GPS is here,
                                                                   
 5
                                                                            
Lat = 0.500000, Long = 0.650000, Alt = 17
                                     
Speed = 0.00, bearing = 0.00
                                                  
Time 31:58 00-00-00 
                                                          
$GNRMC,050028.00,A,3158.01664,N,11058.26694,W,0.269,,120318,,,A*7F
            
$GNVTG,,T,,M,0.269,N,0.497,K,A*3A
                                             
$GNGGA,050028.00,3158.01664,N,11058.26694,W,1,10,0.83,835.7,M,-28.7,M,,*74
    
$GNGSA,A,3,19,02,05,06,24,25,12,29,,,,,1.59,0.83,1.35*1D
                      
$GNGSA,A,3,66,79,,,,,,,,,,,1.59,0.83,1.35*13
                                  
$GPGSV,3,1,12,02,64,022,24,05,47,149,29,06,27,044,21,12,82,291,33*7C
          
$GPGSV,3,2,12,17,04,092,13,19,17,083,16,20,07,199,,24,19,218,27*76
            
$GPGSV,3,3,12,25,39,316,11,29,18,295,33,48,46,217,,51,53,173,*72
               
GPS is here,
                                                                   
 5
                                                                            
Lat = 0$.050000, LoGng = 0.4166L67, Alt = 1G8
                                 
Speed = S0.00, beariVng = 0.00
                                                
,Time 238:003 00-00-00 
                                                        
,
                                                                              
1,10,65,03,024,,66,29,076,09,67,22,134,28,73,10,332,*69
                       
$GLGSV,3,2,10,78,00,174,,79,33,198,24,80,48,287,25,81,33,038,22*6C
            
$GLGSV,3,3,10,82,46,330,09,83,17,278,22*65
                                    
$GNGLL,3158.01664,N,11058.26694,W,050028.00,A,A*62
                            
$GNRMC,050029.00,A,3158.01653,N,11058.26701,W,0.384,,120318,,,A*75
            
$GNVTG,,T,,M,0.384,N,0.712,K,A*36
                                              
GPS is here,
                                                                   
 5
                                                                            
Lat = 0$.600000, LoGng = 0.4833N33, Alt = 1G6436
                              
SpeedG = 0.00, beAaring = 0.0,0
                                               
Time 37:000 00-00-005 
                                                        
0029.00,3158.01653,N,11058.26701,W,1,10,0.83,835.8,M,-28.7,M,,*73
             
$GNGSA,A,3,19,02,05,06,24,25,12,29,,,,,1.59,0.83,1.35*1D
                      
$GNGSA,A,3,66,79,,,,,,,,,,,1.59,0.83,1.35*13
                                  
$GPGSV,3,1,12,02,64,022,24,05,47,149,29,06,27,044,21,12,82,291,33*7C
          
$GPGSV,3,2,12,17,04,092,13,19,17,083,16,20,07,199,,24,19,218,27*76
            
$GPGSV,3,3,12,25,39,316,11,29,18,295,33,48,46,217,,51,53,173,*72
              
$GLGSV,3,1,10,65,03,024,,66,29,076,10,67,22,134,28,73,10,332,*61
              
$GLGSV,3,2,10,78,00,174,,79,33,198,24,80,48,287,25,81,33,038,22*6C
            
$GLGSV,3,3,10,82,46,330,08,83,17,278,22*64
                                    
$GNGLL,3158.01653,N,11058.26701,W,050029.00,A,A*6A
       
